{"business_id":"1SWheh84yJXfytovILXOAQ","name":"Arizona Biltmore Golf Club","address":"2818 E Camino Acequia Drive","city":"Phoenix","state":"AZ","postal_code":"85016","latitude":33.5221425,"longitude":-112.0184807,"stars":3.0,"review_count":5,"is_open":0,"attributes":{"GoodForKids":"False"},"categories":"Golf, Active Life","hours":null}


{"business_id":"QXAEGFB4oINsVuTFxEYKFQ","name":"Emerald Chinese Restaurant","address":"30 Eglinton Avenue W","city":"Mississauga","state":"ON","postal_code":"L5R 3E7","latitude":43.6054989743,"longitude":-79.652288909,"stars":2.5,"review_count":128,"is_open":1,"attributes":{"RestaurantsReservations":"True","GoodForMeal":"{'dessert': False, 'latenight': False, 'lunch': True, 'dinner': True, 'brunch': False, 'breakfast': False}","BusinessParking":"{'garage': False, 'street': False, 'validated': False, 'lot': True, 'valet': False}","Caters":"True","NoiseLevel":"u'loud'","RestaurantsTableService":"True","RestaurantsTakeOut":"True","RestaurantsPriceRange2":"2","OutdoorSeating":"False","BikeParking":"False","Ambience":"{'romantic': False, 'intimate': False, 'classy': False, 'hipster': False, 'divey': False, 'touristy': False, 'trendy': False, 'upscale': False, 'casual': True}","HasTV":"False","WiFi":"u'no'","GoodForKids":"True","Alcohol":"u'full_bar'","RestaurantsAttire":"u'casual'","RestaurantsGoodForGroups":"True","RestaurantsDelivery":"False"},"categories":"Specialty Food, Restaurants, Dim Sum, Imported Food, Food, Chinese, Ethnic Food, Seafood","hours":{"Monday":"9:0-0:0","Tuesday":"9:0-0:0","Wednesday":"9:0-0:0","Thursday":"9:0-0:0","Friday":"9:0-1:0","Saturday":"9:0-1:0","Sunday":"9:0-0:0"}}


{"business_id":"gnKjwL_1w79qoiV3IC_xQQ","name":"Musashi Japanese Restaurant","address":"10110 Johnston Rd, Ste 15","city":"Charlotte","state":"NC","postal_code":"28210","latitude":35.092564,"longitude":-80.859132,"stars":4.0,"review_count":170,"is_open":1,"attributes":{"GoodForKids":"True","NoiseLevel":"u'average'","RestaurantsDelivery":"False","GoodForMeal":"{'dessert': False, 'latenight': False, 'lunch': True, 'dinner': True, 'brunch': False, 'breakfast': False}","Alcohol":"u'beer_and_wine'","Caters":"False","WiFi":"u'no'","RestaurantsTakeOut":"True","BusinessAcceptsCreditCards":"True","Ambience":"{'romantic': False, 'intimate': False, 'touristy': False, 'hipster': False, 'divey': False, 'classy': False, 'trendy': False, 'upscale': False, 'casual': True}","BusinessParking":"{'garage': False, 'street': False, 'validated': False, 'lot': True, 'valet': False}","RestaurantsTableService":"True","RestaurantsGoodForGroups":"True","OutdoorSeating":"False","HasTV":"True","BikeParking":"True","RestaurantsReservations":"True","RestaurantsPriceRange2":"2","RestaurantsAttire":"'casual'"},"categories":"Sushi Bars, Restaurants, Japanese","hours":{"Monday":"17:30-21:30","Wednesday":"17:30-21:30","Thursday":"17:30-21:30","Friday":"17:30-22:0","Saturday":"17:30-22:0","Sunday":"17:30-21:0"}}


{"business_id":"xvX2CttrVhyG2z1dFg_0xw","name":"Farmers Insurance - Paul Lorenz","address":"15655 W Roosevelt St, Ste 237","city":"Goodyear","state":"AZ","postal_code":"85338","latitude":33.4556129678,"longitude":-112.3955963552,"stars":5.0,"review_count":3,"is_open":1,"attributes":null,"categories":"Insurance, Financial Services","hours":{"Monday":"8:0-17:0","Tuesday":"8:0-17:0","Wednesday":"8:0-17:0","Thursday":"8:0-17:0","Friday":"8:0-17:0"}}
